[
  {
    "city": "Manama", 
    "lat": "26.2250", 
    "lng": "50.5775", 
    "country": "Bahrain", 
    "iso2": "BH", 
    "admin_name": "Al ‘Āşimah", 
    "capital": "primary", 
    "population": "635000", 
    "population_proper": "157474"
  }, 
  {
    "city": "Al Muḩarraq", 
    "lat": "26.2500", 
    "lng": "50.6167", 
    "country": "Bahrain", 
    "iso2": "BH", 
    "admin_name": "Al Muḩarraq", 
    "capital": "", 
    "population": "75000", 
    "population_proper": "75000"
  }, 
  {
    "city": "Madīnat Ḩamad", 
    "lat": "26.1128", 
    "lng": "50.5139", 
    "country": "Bahrain", 
    "iso2": "BH", 
    "admin_name": "Ash Shamālīyah", 
    "capital": "", 
    "population": "52700", 
    "population_proper": "52700"
  }, 
  {
    "city": "Jidd Ḩafş", 
    "lat": "26.2190", 
    "lng": "50.5380", 
    "country": "Bahrain", 
    "iso2": "BH", 
    "admin_name": "Al ‘Āşimah", 
    "capital": "", 
    "population": "44784", 
    "population_proper": "44784"
  }, 
  {
    "city": "Madīnat ‘Īsá", 
    "lat": "26.1736", 
    "lng": "50.5478", 
    "country": "Bahrain", 
    "iso2": "BH", 
    "admin_name": "Al Janūbīyah", 
    "capital": "", 
    "population": "40000", 
    "population_proper": "40000"
  }, 
  {
    "city": "Sitrah", 
    "lat": "26.1200", 
    "lng": "50.6500", 
    "country": "Bahrain", 
    "iso2": "BH", 
    "admin_name": "Al ‘Āşimah", 
    "capital": "", 
    "population": "20000", 
    "population_proper": "20000"
  }, 
  {
    "city": "Ḩālat an Na‘īm", 
    "lat": "26.2400", 
    "lng": "50.6350", 
    "country": "Bahrain", 
    "iso2": "BH", 
    "admin_name": "Al Muḩarraq", 
    "capital": "", 
    "population": "500", 
    "population_proper": "500"
  }, 
  {
    "city": "Kaflān", 
    "lat": "26.1833", 
    "lng": "50.5833", 
    "country": "Bahrain", 
    "iso2": "BH", 
    "admin_name": "Al Janūbīyah", 
    "capital": "", 
    "population": "", 
    "population_proper": ""
  }, 
  {
    "city": "Karbābād", 
    "lat": "26.2333", 
    "lng": "50.5333", 
    "country": "Bahrain", 
    "iso2": "BH", 
    "admin_name": "Al ‘Āşimah", 
    "capital": "", 
    "population": "", 
    "population_proper": ""
  }, 
  {
    "city": "Jabalat Ḩabashī", 
    "lat": "26.2172", 
    "lng": "50.5275", 
    "country": "Bahrain", 
    "iso2": "BH", 
    "admin_name": "Ash Shamālīyah", 
    "capital": "", 
    "population": "", 
    "population_proper": ""
  }, 
  {
    "city": "‘Ayn ad Dār", 
    "lat": "26.2167", 
    "lng": "50.5333", 
    "country": "Bahrain", 
    "iso2": "BH", 
    "admin_name": "Al ‘Āşimah", 
    "capital": "", 
    "population": "", 
    "population_proper": ""
  }, 
  {
    "city": "Ḩillat ‘Abd aş Şāliḩ", 
    "lat": "26.2214", 
    "lng": "50.5167", 
    "country": "Bahrain", 
    "iso2": "BH", 
    "admin_name": "Ash Shamālīyah", 
    "capital": "", 
    "population": "", 
    "population_proper": ""
  }, 
  {
    "city": "Al Muqshā‘", 
    "lat": "26.2210", 
    "lng": "50.5150", 
    "country": "Bahrain", 
    "iso2": "BH", 
    "admin_name": "Al ‘Āşimah", 
    "capital": "", 
    "population": "", 
    "population_proper": ""
  }, 
  {
    "city": "Manī", 
    "lat": "26.2167", 
    "lng": "50.5500", 
    "country": "Bahrain", 
    "iso2": "BH", 
    "admin_name": "Al ‘Āşimah", 
    "capital": "", 
    "population": "", 
    "population_proper": ""
  }, 
  {
    "city": "Al Muwaylighah", 
    "lat": "26.2067", 
    "lng": "50.5589", 
    "country": "Bahrain", 
    "iso2": "BH", 
    "admin_name": "Al ‘Āşimah", 
    "capital": "", 
    "population": "", 
    "population_proper": ""
  }, 
  {
    "city": "Al Busaytīn", 
    "lat": "26.2720", 
    "lng": "50.6090", 
    "country": "Bahrain", 
    "iso2": "BH", 
    "admin_name": "Al Muḩarraq", 
    "capital": "", 
    "population": "", 
    "population_proper": ""
  }, 
  {
    "city": "Rayyā", 
    "lat": "26.2833", 
    "lng": "50.6333", 
    "country": "Bahrain", 
    "iso2": "BH", 
    "admin_name": "Al Muḩarraq", 
    "capital": "", 
    "population": "", 
    "population_proper": ""
  }, 
  {
    "city": "‘Arād", 
    "lat": "26.2561", 
    "lng": "50.6322", 
    "country": "Bahrain", 
    "iso2": "BH", 
    "admin_name": "Al Muḩarraq", 
    "capital": "", 
    "population": "", 
    "population_proper": ""
  }, 
  {
    "city": "Qalālī", 
    "lat": "26.2667", 
    "lng": "50.6500", 
    "country": "Bahrain", 
    "iso2": "BH", 
    "admin_name": "Al Muḩarraq", 
    "capital": "", 
    "population": "", 
    "population_proper": ""
  }, 
  {
    "city": "Samāhīj", 
    "lat": "26.2800", 
    "lng": "50.6350", 
    "country": "Bahrain", 
    "iso2": "BH", 
    "admin_name": "Al Muḩarraq", 
    "capital": "", 
    "population": "", 
    "population_proper": ""
  }, 
  {
    "city": "Ad Dayr", 
    "lat": "26.2842", 
    "lng": "50.6236", 
    "country": "Bahrain", 
    "iso2": "BH", 
    "admin_name": "Al Muḩarraq", 
    "capital": "", 
    "population": "", 
    "population_proper": ""
  }, 
  {
    "city": "Ḩālat as Sulţah", 
    "lat": "26.2428", 
    "lng": "50.6386", 
    "country": "Bahrain", 
    "iso2": "BH", 
    "admin_name": "Al Muḩarraq", 
    "capital": "", 
    "population": "", 
    "population_proper": ""
  }, 
  {
    "city": "Az Zimmah", 
    "lat": "26.2553", 
    "lng": "50.6469", 
    "country": "Bahrain", 
    "iso2": "BH", 
    "admin_name": "Al Muḩarraq", 
    "capital": "", 
    "population": "", 
    "population_proper": ""
  }, 
  {
    "city": "Ḩālat al Khulayfāt", 
    "lat": "26.2500", 
    "lng": "50.6333", 
    "country": "Bahrain", 
    "iso2": "BH", 
    "admin_name": "Al Muḩarraq", 
    "capital": "", 
    "population": "", 
    "population_proper": ""
  }, 
  {
    "city": "Al Ḩadd", 
    "lat": "26.2500", 
    "lng": "50.6500", 
    "country": "Bahrain", 
    "iso2": "BH", 
    "admin_name": "Al Muḩarraq", 
    "capital": "", 
    "population": "", 
    "population_proper": ""
  }, 
  {
    "city": "Umm ash Shajar", 
    "lat": "26.2283", 
    "lng": "50.6558", 
    "country": "Bahrain", 
    "iso2": "BH", 
    "admin_name": "Al Muḩarraq", 
    "capital": "", 
    "population": "", 
    "population_proper": ""
  }, 
  {
    "city": "Al Hujayr", 
    "lat": "26.1833", 
    "lng": "50.5500", 
    "country": "Bahrain", 
    "iso2": "BH", 
    "admin_name": "Al ‘Āşimah", 
    "capital": "", 
    "population": "", 
    "population_proper": ""
  }, 
  {
    "city": "An Nuwaydirāt", 
    "lat": "26.1333", 
    "lng": "50.6000", 
    "country": "Bahrain", 
    "iso2": "BH", 
    "admin_name": "Al Janūbīyah", 
    "capital": "", 
    "population": "", 
    "population_proper": ""
  }, 
  {
    "city": "Al Jubaylāt", 
    "lat": "26.1819", 
    "lng": "50.5533", 
    "country": "Bahrain", 
    "iso2": "BH", 
    "admin_name": "Al ‘Āşimah", 
    "capital": "", 
    "population": "", 
    "population_proper": ""
  }, 
  {
    "city": "Al Qaryah", 
    "lat": "26.1722", 
    "lng": "50.6106", 
    "country": "Bahrain", 
    "iso2": "BH", 
    "admin_name": "Al ‘Āşimah", 
    "capital": "", 
    "population": "", 
    "population_proper": ""
  }, 
  {
    "city": "Ḩālah", 
    "lat": "26.1733", 
    "lng": "50.6214", 
    "country": "Bahrain", 
    "iso2": "BH", 
    "admin_name": "Al ‘Āşimah", 
    "capital": "", 
    "population": "", 
    "population_proper": ""
  }, 
  {
    "city": "Marqūbān", 
    "lat": "26.1667", 
    "lng": "50.6167", 
    "country": "Bahrain", 
    "iso2": "BH", 
    "admin_name": "Al ‘Āşimah", 
    "capital": "", 
    "population": "", 
    "population_proper": ""
  }, 
  {
    "city": "Sufālah", 
    "lat": "26.1667", 
    "lng": "50.6333", 
    "country": "Bahrain", 
    "iso2": "BH", 
    "admin_name": "Al ‘Āşimah", 
    "capital": "", 
    "population": "", 
    "population_proper": ""
  }, 
  {
    "city": "Ḩālat Umm al Bayḑ", 
    "lat": "26.1167", 
    "lng": "50.6333", 
    "country": "Bahrain", 
    "iso2": "BH", 
    "admin_name": "Al Janūbīyah", 
    "capital": "", 
    "population": "", 
    "population_proper": ""
  }, 
  {
    "city": "Al ‘Akr", 
    "lat": "26.1431", 
    "lng": "50.6103", 
    "country": "Bahrain", 
    "iso2": "BH", 
    "admin_name": "Al ‘Āşimah", 
    "capital": "", 
    "population": "", 
    "population_proper": ""
  }, 
  {
    "city": "Al Ma‘āmīr", 
    "lat": "26.1333", 
    "lng": "50.6086", 
    "country": "Bahrain", 
    "iso2": "BH", 
    "admin_name": "Al Janūbīyah", 
    "capital": "", 
    "population": "", 
    "population_proper": ""
  }, 
  {
    "city": "Jidd ‘Alī", 
    "lat": "26.1792", 
    "lng": "50.5622", 
    "country": "Bahrain", 
    "iso2": "BH", 
    "admin_name": "Al ‘Āşimah", 
    "capital": "", 
    "population": "", 
    "population_proper": ""
  }, 
  {
    "city": "Jurdāb", 
    "lat": "26.1667", 
    "lng": "50.5833", 
    "country": "Bahrain", 
    "iso2": "BH", 
    "admin_name": "Al ‘Āşimah", 
    "capital": "", 
    "population": "", 
    "population_proper": ""
  }, 
  {
    "city": "Sanad", 
    "lat": "26.1500", 
    "lng": "50.5833", 
    "country": "Bahrain", 
    "iso2": "BH", 
    "admin_name": "Al ‘Āşimah", 
    "capital": "", 
    "population": "", 
    "population_proper": ""
  }, 
  {
    "city": "Al Khārijīyah", 
    "lat": "26.1636", 
    "lng": "50.6047", 
    "country": "Bahrain", 
    "iso2": "BH", 
    "admin_name": "Al ‘Āşimah", 
    "capital": "", 
    "population": "", 
    "population_proper": ""
  }, 
  {
    "city": "Kawrah", 
    "lat": "26.1833", 
    "lng": "50.5667", 
    "country": "Bahrain", 
    "iso2": "BH", 
    "admin_name": "Al ‘Āşimah", 
    "capital": "", 
    "population": "", 
    "population_proper": ""
  }, 
  {
    "city": "Mahazzah", 
    "lat": "26.1690", 
    "lng": "50.6260", 
    "country": "Bahrain", 
    "iso2": "BH", 
    "admin_name": "Al ‘Āşimah", 
    "capital": "", 
    "population": "", 
    "population_proper": ""
  }, 
  {
    "city": "Wādiyān", 
    "lat": "26.1580", 
    "lng": "50.6160", 
    "country": "Bahrain", 
    "iso2": "BH", 
    "admin_name": "Al ‘Āşimah", 
    "capital": "", 
    "population": "", 
    "population_proper": ""
  }, 
  {
    "city": "Salmābād", 
    "lat": "26.1833", 
    "lng": "50.5167", 
    "country": "Bahrain", 
    "iso2": "BH", 
    "admin_name": "Ash Shamālīyah", 
    "capital": "", 
    "population": "", 
    "population_proper": ""
  }, 
  {
    "city": "Tūblī", 
    "lat": "26.1869", 
    "lng": "50.5494", 
    "country": "Bahrain", 
    "iso2": "BH", 
    "admin_name": "Al ‘Āşimah", 
    "capital": "", 
    "population": "", 
    "population_proper": ""
  }, 
  {
    "city": "Ar Rifā‘", 
    "lat": "26.1300", 
    "lng": "50.5550", 
    "country": "Bahrain", 
    "iso2": "BH", 
    "admin_name": "Al Janūbīyah", 
    "capital": "", 
    "population": "", 
    "population_proper": ""
  }, 
  {
    "city": "‘Ālī", 
    "lat": "26.1619", 
    "lng": "50.5164", 
    "country": "Bahrain", 
    "iso2": "BH", 
    "admin_name": "Ash Shamālīyah", 
    "capital": "", 
    "population": "", 
    "population_proper": ""
  }, 
  {
    "city": "Al Qadam", 
    "lat": "26.2167", 
    "lng": "50.5167", 
    "country": "Bahrain", 
    "iso2": "BH", 
    "admin_name": "Ash Shamālīyah", 
    "capital": "", 
    "population": "", 
    "population_proper": ""
  }, 
  {
    "city": "Jamālah", 
    "lat": "26.2000", 
    "lng": "50.5500", 
    "country": "Bahrain", 
    "iso2": "BH", 
    "admin_name": "Al ‘Āşimah", 
    "capital": "", 
    "population": "", 
    "population_proper": ""
  }
]